City_ID,City,Lat,Lng,Max Temp,Humidity,Cloudiness,Wind Speed,Country,Date
0,geraldton,-28.7667,114.6,18.23,55,0,5.66,AU,1670362975
1,mar del plata,-38.0023,-57.5575,22.68,78,20,7.72,AR,1670362771
2,bluff,-46.6,168.3333,13.22,55,1,7.19,NZ,1670362976
3,punta arenas,-53.15,-70.9167,10.06,40,40,13.38,CL,1670362517
4,vaini,-21.2,-175.2,28.09,83,75,3.6,TO,1670362977
5,santa cruz,-17.8,-63.1667,33.03,52,40,5.66,BO,1670362977
6,meulaboh,4.1363,96.1285,23.6,94,100,3.59,ID,1670362977
7,det udom,14.906,105.0784,19.9,85,52,2.13,TH,1670362978
8,beira,-19.8436,34.8389,26.57,84,4,4.91,MZ,1670362978
9,ushuaia,-54.8,-68.3,7.81,42,40,10.29,AR,1670362979
10,lagoa,39.05,-27.9833,14.73,78,100,15.45,PT,1670362979
11,hobart,-42.8794,147.3294,12.37,72,20,5.14,AU,1670362979
12,aklavik,68.2191,-135.0107,-22.0,64,75,5.66,CA,1670362980
13,longyearbyen,78.2186,15.6401,-14.09,61,0,5.14,SJ,1670362980
14,faanui,-16.4833,-151.75,26.65,75,33,7.52,PF,1670362980
15,povenets,62.8487,34.8262,-5.42,95,100,4.33,RU,1670362981
16,butaritari,3.0707,172.7902,27.01,81,79,5.65,KI,1670362981
17,jasper,37.2001,-94.3502,10.13,93,100,2.06,US,1670362982
18,hilo,19.7297,-155.09,25.71,94,100,0.0,US,1670362982
19,suzhou,31.3114,120.6181,6.94,69,73,1.99,CN,1670362784
20,new norfolk,-42.7826,147.0587,12.18,51,74,1.02,AU,1670362983
21,salalah,17.0151,54.0924,25.05,73,20,2.06,OM,1670362983
22,ende,-8.8432,121.6623,25.1,76,66,1.3,ID,1670362984
23,victor harbor,-35.5667,138.6167,15.56,69,29,1.34,AU,1670362984
24,asau,46.4333,26.4,1.51,95,81,2.12,RO,1670362984
25,arman,59.7,150.1667,-21.07,86,95,4.55,RU,1670362985
26,fortuna,40.5982,-124.1573,11.51,68,0,2.06,US,1670362985
27,imeni babushkina,59.7573,43.1285,-6.35,68,100,4.97,RU,1670362986
28,tagusao,9.1924,117.8141,25.52,85,47,2.56,PH,1670362986
29,talnakh,69.4865,88.3972,-5.44,96,100,7.25,RU,1670362986
30,albany,42.6001,-73.9662,11.33,90,100,4.47,US,1670362758
31,mataura,-46.1927,168.8643,13.04,47,1,3.83,NZ,1670362987
32,torbay,47.6666,-52.7314,2.09,97,100,6.17,CA,1670362987
33,ilobu,7.8333,4.4833,22.88,61,90,1.23,NG,1670362988
34,prince george,53.9166,-122.753,-9.28,84,100,1.54,CA,1670362785
35,hermanus,-34.4187,19.2345,12.11,64,17,0.37,ZA,1670362988
36,yellowknife,62.456,-114.3525,-31.36,75,20,2.06,CA,1670362989
37,nha trang,12.25,109.1833,23.0,92,100,3.76,VN,1670362989
38,mungwi,-10.1732,31.3694,16.84,84,100,0.43,ZM,1670362990
39,niamey,13.5137,2.1098,28.16,16,84,1.54,NE,1670362990
40,biltine,14.5333,20.9167,20.25,19,0,7.26,TD,1670362990
41,port alfred,-33.5906,26.891,17.32,89,0,7.66,ZA,1670362991
42,qaanaaq,77.484,-69.3632,-0.75,72,100,4.42,GL,1670362991
43,busselton,-33.65,115.3333,12.38,78,11,6.23,AU,1670362992
44,upernavik,72.7868,-56.1549,-0.24,95,100,11.25,GL,1670362992
45,cartagena,10.3997,-75.5144,29.79,62,20,3.6,CO,1670362975
46,cherskiy,68.75,161.3,-27.22,97,100,3.77,RU,1670362993
47,yar-sale,66.8333,70.8333,-18.99,97,16,3.32,RU,1670362993
48,maragua,-0.7833,37.1333,15.35,97,100,1.26,KE,1670362994
49,terrace,54.5163,-128.6035,-5.05,73,100,1.03,CA,1670362994
50,vaitape,-16.5167,-151.75,26.64,75,32,7.49,PF,1670362995
51,inuvik,68.3499,-133.7218,-24.52,58,75,3.6,CA,1670362710
52,moses lake,47.1301,-119.2781,-2.62,100,100,2.06,US,1670362900
53,barrow,71.2906,-156.7887,-6.99,93,100,10.29,US,1670362995
54,bethel,41.3712,-73.414,12.51,83,100,1.54,US,1670362996
55,hualmay,-11.0964,-77.6139,21.28,74,18,4.46,PE,1670362996
56,dunedin,-45.8742,170.5036,9.33,66,59,0.89,NZ,1670362981
57,esperance,-33.8667,121.9,14.82,68,90,6.05,AU,1670362997
58,castro,-24.7911,-50.0119,18.99,96,24,1.89,BR,1670362997
59,kaduy,59.2,37.15,-5.19,75,100,4.91,RU,1670362997
60,tiksi,71.6872,128.8694,-33.27,100,98,1.9,RU,1670362998
61,portland,45.5234,-122.6762,7.12,86,100,0.89,US,1670362835
62,khatanga,71.9667,102.5,-19.63,97,100,5.28,RU,1670362998
63,campagna,40.6653,15.1059,11.16,80,90,1.15,IT,1670362999
64,lorengau,-2.0226,147.2712,27.36,80,97,3.61,PG,1670362999
65,ilulissat,69.2167,-51.1,0.01,93,75,3.09,GL,1670363000
66,pitimbu,-7.4706,-34.8086,27.33,76,29,4.25,BR,1670363000
67,saldanha,-33.0117,17.9442,14.03,83,26,3.64,ZA,1670363000
68,abalak,58.1286,68.5944,-20.57,99,73,1.84,RU,1670363001
69,tasiilaq,65.6145,-37.6368,-1.91,60,13,5.14,GL,1670363001
70,khorixas,-20.3667,14.9667,15.6,43,0,1.69,NA,1670363002
71,tysmenytsya,48.9022,24.8448,1.2,99,100,2.29,UA,1670363002
72,fenyi,27.8112,114.6681,5.64,94,64,0.61,CN,1670363003
73,beringovskiy,63.05,179.3167,-12.02,80,100,4.27,RU,1670363003
74,rakocziujfalu,47.0667,20.2667,2.18,92,0,2.06,HU,1670363003
75,illela,13.7292,5.2975,24.0,17,87,4.49,NG,1670363004
76,carinhanha,-14.3047,-43.765,23.95,72,99,0.73,BR,1670363004
77,hermosillo,29.0667,-110.9667,27.38,35,20,2.57,MX,1670362709
78,comodoro rivadavia,-45.8667,-67.5,22.92,17,20,10.29,AR,1670362969
79,pocsaj,47.2833,21.8167,2.45,93,21,3.65,HU,1670363005
80,east london,-33.0153,27.9116,17.78,85,40,3.35,ZA,1670363005
81,upata,8.0086,-62.3989,26.22,88,95,2.03,VE,1670363005
82,kokkola,63.8385,23.1307,-0.6,95,40,3.6,FI,1670363006
83,jamestown,42.097,-79.2353,7.77,64,100,2.06,US,1670363007
84,airai,-8.9266,125.4092,16.25,63,60,0.41,TL,1670363007
85,tessalit,20.1986,1.0114,25.23,15,98,4.67,ML,1670363007
86,nikolskoye,59.7035,30.7861,-5.05,93,100,4.05,RU,1670363008
87,sainte-maxime,43.3,6.6333,8.01,58,25,1.88,FR,1670363008
88,kupang,-10.1667,123.5833,23.32,100,20,1.03,ID,1670363008
89,san patricio,28.017,-97.5169,27.31,66,53,7.2,US,1670363009
90,tromso,69.6496,18.957,-1.99,74,0,1.03,NO,1670362893
91,georgetown,5.4112,100.3354,24.99,95,20,1.54,MY,1670362991
92,bardiyah,31.7561,25.0865,16.57,64,37,4.8,LY,1670363010
93,sebina,-20.8667,27.25,20.57,70,100,3.2,BW,1670363010
94,kununurra,-15.7667,128.7333,26.99,94,75,0.0,AU,1670363011
95,birjand,32.8663,59.2211,8.26,53,100,0.0,IR,1670363011
96,port lincoln,-34.7333,135.8667,14.54,66,90,7.85,AU,1670363011
97,atuona,-9.8,-139.0333,25.21,77,79,6.72,PF,1670363012
98,nisia floresta,-6.0911,-35.2086,27.45,79,17,4.03,BR,1670363012
99,muisne,0.6,-80.0333,24.74,77,32,4.16,EC,1670363012
100,srednekolymsk,67.45,153.6833,-31.73,98,100,5.83,RU,1670363013
101,cape town,-33.9258,18.4232,17.29,62,0,2.57,ZA,1670363013
102,zlitan,32.4674,14.5687,19.01,43,81,4.32,LY,1670363014
103,jeremie,18.65,-74.1167,25.96,65,20,5.54,HT,1670363014
104,lebu,-37.6167,-73.65,18.12,69,4,2.9,CL,1670363014
105,rikitea,-23.1203,-134.9692,24.1,77,9,7.29,PF,1670363015
106,magnolia,33.2671,-93.2393,23.82,78,100,4.02,US,1670363015
107,saskylakh,71.9167,114.0833,-21.86,97,100,6.12,RU,1670363016
108,dikson,73.5069,80.5464,-15.17,98,83,4.11,RU,1670363016
109,ellsworth,44.5434,-68.4195,8.05,86,20,2.06,US,1670363016
110,turukhansk,65.8167,87.9833,-14.73,93,100,4.72,RU,1670363017
111,carupano,10.6678,-63.2585,24.15,73,48,1.68,VE,1670363017
112,harper,4.375,-7.7169,25.8,84,71,3.14,LR,1670363018
113,bredasdorp,-34.5322,20.0403,15.45,69,24,0.27,ZA,1670363018
114,saint-augustin,51.226,-58.6502,-4.48,91,100,2.09,CA,1670363019
115,gazalkent,41.5581,69.7708,-2.14,90,100,0.87,UZ,1670363019
116,sola,-13.8833,167.55,28.11,73,29,5.33,VU,1670363019
117,ilfracombe,51.2093,-4.1134,5.36,76,9,4.63,GB,1670363020
118,lerwick,60.1545,-1.1494,2.0,69,100,11.94,GB,1670363020
119,tual,-5.6667,132.75,28.23,70,100,3.71,ID,1670363020
120,honiara,-9.4333,159.95,28.71,72,35,1.79,SB,1670363021
121,los llanos de aridane,28.6585,-17.9182,20.86,90,40,4.12,ES,1670363021
122,najran,17.4924,44.1277,17.36,29,0,1.14,SA,1670363021
123,katsuura,35.1333,140.3,10.16,67,7,0.84,JP,1670363022
124,saint george,37.1041,-113.5841,11.91,66,20,1.54,US,1670363022
125,jumla,29.2747,82.1838,3.63,26,0,2.47,NP,1670363023
126,codrington,-38.2667,141.9667,13.06,77,52,6.02,AU,1670363023
127,yerbogachen,61.2767,108.0108,-11.71,91,100,6.18,RU,1670363023
128,tobermory,45.2501,-81.6665,4.45,81,100,3.85,CA,1670363024
129,chokurdakh,70.6333,147.9167,-24.61,99,100,2.4,RU,1670363024
130,broken hill,-31.95,141.4333,24.02,37,100,1.36,AU,1670363013
131,platteville,42.7342,-90.4785,4.62,70,100,3.09,US,1670363025
132,canakkale,40.0833,26.8333,4.32,93,95,0.77,TR,1670363025
133,vicosa do ceara,-3.5622,-41.0922,25.14,44,94,2.95,BR,1670363026
134,santa ana,33.7456,-117.8678,17.53,66,75,4.12,US,1670362804
135,migori,-1.0634,34.4731,16.09,89,100,2.02,KE,1670363026
136,lososina,48.9975,140.3106,-10.82,69,100,2.17,RU,1670363027
137,batticaloa,7.7102,81.6924,24.44,87,100,5.98,LK,1670363027
138,bubaque,11.2833,-15.8333,27.5,68,1,6.11,GW,1670363028
139,saint-vallier,46.6411,4.3711,2.76,82,98,1.02,FR,1670363028
140,kargil,34.5667,76.1,-8.29,51,2,1.17,IN,1670363028
141,waipawa,-41.4122,175.5153,12.34,55,97,4.44,NZ,1670363029
142,victoria,22.2855,114.1577,17.4,79,5,4.47,HK,1670362763
143,banda aceh,5.5577,95.3222,25.07,87,100,5.87,ID,1670363029
144,tuktoyaktuk,69.4541,-133.0374,-27.0,69,75,8.23,CA,1670363030
145,el colomo,19.05,-104.25,28.75,67,1,3.2,MX,1670363030
146,ust-tsilma,65.441,52.1498,-11.49,87,99,3.91,RU,1670363031
147,ribeira grande,38.5167,-28.7,14.87,82,75,10.73,PT,1670363031
148,praia,14.9215,-23.5087,23.3,68,20,4.12,CV,1670362825
149,pujehun,7.3581,-11.7208,25.21,89,49,1.17,SL,1670363031
150,awjilah,29.1081,21.2869,19.98,20,62,3.94,LY,1670363032
151,roswell,34.0232,-84.3616,11.99,97,100,3.09,US,1670362317
152,palmas,-10.2128,-48.3603,30.93,66,20,1.03,BR,1670363032
153,cabo san lucas,22.8909,-109.9124,29.78,60,12,4.18,MX,1670362933
154,namibe,-15.1961,12.1522,20.4,83,9,2.76,AO,1670363033
155,souillac,-20.5167,57.5167,25.21,83,75,5.14,MU,1670363033
156,ambon,-3.6954,128.1814,24.08,88,20,1.54,ID,1670363034
157,campos belos,-13.0367,-46.7717,22.69,84,63,1.36,BR,1670363034
158,westerlo,51.0905,4.9154,6.02,91,75,4.12,BE,1670363034
159,avarua,-21.2078,-159.775,23.03,100,75,3.6,CK,1670363035
160,nambucca heads,-30.65,153.0,23.89,69,63,1.09,AU,1670363035
161,puerto ayora,-0.7393,-90.3518,25.98,82,54,1.79,EC,1670362975
162,hirara,24.8,125.2833,21.86,71,31,12.08,JP,1670363036
163,kaitangata,-46.2817,169.8464,12.77,54,2,6.48,NZ,1670363036
164,san ramon de la nueva oran,-23.1322,-64.326,39.12,17,47,2.74,AR,1670363037
165,klaksvik,62.2266,-6.589,2.51,65,100,11.09,FO,1670363037
166,flinders,-34.5833,150.8552,23.92,73,61,2.68,AU,1670363037
167,thompson,55.7435,-97.8558,-24.91,64,75,3.09,CA,1670362755
168,svetlaya,46.5389,138.3297,-8.45,68,100,5.11,RU,1670363038
169,dingle,10.9995,122.6711,23.56,92,41,3.28,PH,1670363039
170,kodiak,57.79,-152.4072,3.73,70,20,1.54,US,1670363039
171,haines junction,60.7522,-137.5108,-5.25,97,98,0.32,CA,1670363039
172,bayir,37.2687,28.2167,4.29,85,81,0.73,TR,1670363040
173,grindavik,63.8424,-22.4338,3.26,81,75,3.6,IS,1670363040
174,derzhavinsk,51.1,66.3167,-20.49,91,62,3.2,KZ,1670363041
175,poronaysk,49.2167,143.1167,-11.67,82,99,3.52,RU,1670363041
176,mirnyy,62.5353,113.9611,-15.98,84,100,7.15,RU,1670363041
177,chifeng,42.2683,118.9636,-7.89,42,0,4.35,CN,1670363042
178,chunskiy,56.0815,99.6342,-12.98,89,100,5.72,RU,1670363042
179,shirokiy,49.758,129.523,-24.36,100,100,0.9,RU,1670363042
180,leningradskiy,69.3833,178.4167,-19.78,92,22,2.98,RU,1670363043
181,kavieng,-2.5744,150.7967,27.63,79,92,3.72,PG,1670363043
182,udachnyy,66.4167,112.4,-15.86,84,100,7.12,RU,1670363044
183,ruwi,23.5996,58.5507,21.83,57,0,2.13,OM,1670363044
184,thinadhoo,0.5333,72.9333,27.73,73,59,6.37,MV,1670363044
185,sur,22.5667,59.5289,22.13,58,0,1.83,OM,1670363045
186,kajaani,64.2273,27.7285,-1.97,93,100,4.12,FI,1670363045
187,kousseri,12.0769,15.0306,21.98,28,0,2.57,CM,1670363046
188,hovd,48.0056,91.6419,-17.43,75,6,2.07,MN,1670363046
189,kingman,35.1894,-114.053,12.72,55,20,5.66,US,1670363046
190,kapaa,22.0752,-159.319,27.18,83,100,5.14,US,1670363047
191,buala,-8.145,159.5921,28.54,72,18,1.97,SB,1670363048
192,mandurah,-32.55,115.7,16.04,70,0,7.8,AU,1670363048
193,candido mendes,-1.4467,-45.7167,25.08,86,18,2.52,BR,1670363048
194,labuhan,-6.8844,112.2051,25.12,86,99,1.98,ID,1670363049
195,saint-leu,-21.15,55.2833,24.48,77,33,2.81,RE,1670363049
196,half moon bay,37.4636,-122.4286,14.44,75,75,2.06,US,1670362994
197,oistins,13.0667,-59.5333,27.05,69,20,0.51,BB,1670362917
198,goma,-1.6792,29.2228,15.99,89,58,1.84,CD,1670363050
199,sarkand,45.41,79.9186,-12.36,69,16,3.04,KZ,1670363050
200,hithadhoo,-0.6,73.0833,27.53,75,60,5.29,MV,1670363051
201,merauke,-8.4667,140.3333,25.63,82,100,3.82,ID,1670363051
202,wajir,1.7471,40.0573,26.31,66,51,5.65,KE,1670363051
203,narsaq,60.9167,-46.05,1.12,99,100,2.53,GL,1670363052
204,port-gentil,-0.7193,8.7815,22.98,100,40,3.6,GA,1670363052
205,davila,18.4726,120.5763,23.99,83,99,8.41,PH,1670363053
206,grinnell,41.743,-92.7224,6.99,63,75,2.06,US,1670363053
207,mayenne,48.3333,-0.6667,4.69,94,81,2.45,FR,1670363054
208,cidreira,-30.1811,-50.2056,21.69,89,13,3.03,BR,1670363054
209,amahai,-3.3333,128.9167,25.54,79,82,1.46,ID,1670363054
210,saint-francois,46.4154,3.9054,2.04,93,100,0.0,FR,1670362842
211,provideniya,64.3833,-173.3,-2.94,80,75,8.05,RU,1670363055
212,bandarbeyla,9.4942,50.8122,24.84,72,86,6.41,SO,1670363055
213,west plains,36.7281,-91.8524,13.46,89,100,1.54,US,1670363056
214,saint-philippe,-21.3585,55.7679,24.77,87,77,6.26,RE,1670363056
215,sibu,2.3,111.8167,24.17,100,40,1.54,MY,1670363057
216,sao filipe,14.8961,-24.4956,23.15,73,62,2.52,CV,1670363057
217,hambantota,6.1241,81.1185,24.19,100,40,1.54,LK,1670363057
218,burriana,39.889,-0.085,14.83,88,8,1.48,ES,1670363058
219,severo-kurilsk,50.6789,156.125,-2.54,81,43,4.39,RU,1670363058
220,rivers,50.0308,-100.2403,-20.47,87,75,3.41,CA,1670363058
221,bud,39.447,-86.1758,11.01,90,99,0.86,US,1670363059
222,tondano,1.3038,124.9112,19.05,92,91,0.61,ID,1670363059
223,paka,4.6374,103.4368,24.99,100,71,0.0,MY,1670363060
224,puri,19.8,85.85,16.29,49,97,4.69,IN,1670363060
225,roma,43.2128,-75.4557,10.4,95,100,0.0,US,1670362796
226,gat,31.61,34.7642,16.33,100,38,1.59,IL,1670363061
227,vardo,70.3705,31.1107,-0.01,86,20,6.69,NO,1670363061
228,lompoc,34.6391,-120.4579,17.61,63,0,4.63,US,1670363062
229,kavaratti,10.5669,72.642,27.26,70,96,1.66,IN,1670363062
230,chiredzi,-21.05,31.6667,24.89,63,79,4.52,ZW,1670362930
231,nioro,13.35,-15.75,27.96,40,3,2.43,GM,1670363063
232,port elizabeth,-33.918,25.5701,19.5,91,0,2.57,ZA,1670363064
233,ewa beach,21.3156,-158.0072,28.97,63,0,4.12,US,1670363064
234,orlovskiy,46.8714,42.0592,-7.87,68,6,6.65,RU,1670363065
235,grande prairie,55.1667,-118.8027,-26.9,69,40,2.06,CA,1670362926
236,rio branco,-9.9747,-67.81,30.34,66,40,2.57,BR,1670363065
237,nome,64.5011,-165.4064,-7.69,93,0,3.09,US,1670363065
238,san jose,37.3394,-121.895,14.41,77,75,3.6,US,1670363040
239,presidencia roque saenz pena,-26.7852,-60.4388,38.78,16,3,2.53,AR,1670363066
240,dudinka,69.4058,86.1778,-5.21,94,100,7.78,RU,1670363067
241,denpasar,-8.65,115.2167,25.81,88,40,1.54,ID,1670363067
242,tuatapere,-46.1333,167.6833,14.03,53,6,2.63,NZ,1670363068
243,rabo de peixe,37.8,-25.5833,14.73,98,40,6.69,PT,1670363068
244,cuiluan,47.72,128.648,-14.8,96,100,1.68,CN,1670363068
245,pangnirtung,66.1451,-65.7125,-6.0,79,100,7.2,CA,1670363069
246,axim,4.8699,-2.2405,26.33,85,66,4.15,GH,1670363069
247,rocha,-34.4833,-54.3333,24.28,47,0,4.51,UY,1670363070
248,wajima,37.4,136.9,9.17,66,98,10.05,JP,1670363070
249,polunochnoye,60.8697,60.4153,-20.25,98,26,1.65,RU,1670363070
250,tatarbunary,45.8373,29.6142,5.62,82,100,2.98,UA,1670363071
251,vestmannaeyjar,63.4427,-20.2734,1.63,73,17,7.5,IS,1670363071
252,takoradi,4.8845,-1.7554,26.29,86,63,3.94,GH,1670363072
253,balkhash,46.844,74.9804,-16.49,86,81,3.72,KZ,1670363072
254,carmen,18.6333,-91.8333,29.02,61,20,4.63,MX,1670363073
255,sitka,57.0531,-135.33,3.94,87,100,4.12,US,1670363073
256,bauchi,10.5,10.0,20.98,31,48,2.79,NG,1670363073
257,mandalgovi,45.7625,106.2708,-11.96,39,100,3.74,MN,1670363074
258,carnarvon,-24.8667,113.6333,21.04,75,65,6.75,AU,1670363074
259,walla walla,46.0646,-118.343,7.52,75,75,5.66,US,1670362980
260,ayr,55.4627,-4.6339,0.17,93,20,1.54,GB,1670363075
261,coihaique,-45.5752,-72.0662,14.97,51,100,4.63,CL,1670363075
262,imeni poliny osipenko,52.4201,136.4853,-28.0,100,77,1.25,RU,1670363076
263,rivadavia,-33.1905,-68.4608,33.62,19,0,2.61,AR,1670362951
264,belmonte,-15.8631,-38.8828,23.78,86,86,2.7,BR,1670363076
265,saint anthony,45.0205,-93.218,-0.82,63,0,2.06,US,1670363077
266,nantucket,41.2835,-70.0995,12.08,86,0,5.66,US,1670362777
267,beauvais,49.4167,2.0,2.02,98,100,1.54,FR,1670363078
268,bathsheba,13.2167,-59.5167,27.34,84,20,0.51,BB,1670363078
269,norman wells,65.282,-126.8329,-29.98,69,75,4.12,CA,1670363078
270,kikwit,-5.041,18.8162,20.65,97,97,0.6,CD,1670363079
271,rantoul,40.3084,-88.1559,7.01,97,100,0.0,US,1670362785
272,gavle,60.6745,17.1417,-8.68,92,91,0.45,SE,1670363079
273,umm lajj,25.0213,37.2685,23.3,68,61,3.9,SA,1670363080
274,asosa,10.0667,34.5333,17.83,47,28,1.69,ET,1670363080
275,calvia,39.5657,2.5062,13.93,88,80,2.0,ES,1670363081
276,coffs harbour,-30.3,153.1333,22.98,73,74,3.09,AU,1670362819
277,panjab,34.388,67.0233,-4.25,83,64,0.42,AF,1670363081
278,ostrovnoy,68.0531,39.5131,-3.98,89,44,10.85,RU,1670363082
279,sakassou,7.4546,-5.2926,26.91,54,18,0.93,CI,1670363082
280,miramar,25.9873,-80.2323,27.22,67,40,6.17,US,1670363083
281,kiryas joel,41.342,-74.1679,12.21,91,100,3.09,US,1670363022
282,nicoya,10.1483,-85.452,27.05,75,24,2.2,CR,1670363083
283,wonthaggi,-38.6044,145.5913,16.01,64,78,2.64,AU,1670363084
284,cascais,38.6979,-9.4215,13.85,90,53,3.13,PT,1670363084
285,bereda,43.2686,-7.5406,10.23,100,96,0.66,ES,1670363085
286,vysokogornyy,50.1167,139.15,-16.58,93,100,3.3,RU,1670363085
287,orlik,52.5178,99.825,-20.05,85,100,1.11,RU,1670363085
288,mount gambier,-37.8333,140.7667,12.56,66,70,3.84,AU,1670363086
289,port hedland,-20.3167,118.5667,26.03,69,1,5.66,AU,1670363086
290,sinnamary,5.3833,-52.95,25.55,89,62,4.07,GF,1670363087
291,sibolga,1.7427,98.7792,23.86,92,100,1.76,ID,1670363087
292,port hardy,50.6996,-127.4199,4.1,93,75,2.06,CA,1670363087
293,caceres,39.522,-6.3748,10.41,94,100,0.87,ES,1670363088
294,gannavaram,16.5333,80.8,20.1,83,83,0.64,IN,1670363088
295,port moresby,-9.4431,147.1797,24.68,94,75,1.54,PG,1670362926
296,caravelas,-17.7125,-39.2481,23.44,87,85,2.63,BR,1670363088
297,bambanglipuro,-7.95,110.2833,24.09,90,100,1.27,ID,1670363089
298,bengkulu,-3.8004,102.2655,24.04,86,100,1.69,ID,1670363089
299,marquette,46.5333,-87.6335,-1.77,66,73,2.01,US,1670363090
300,kahului,20.8947,-156.47,28.8,62,20,4.47,US,1670362867
301,fayaoue,-20.65,166.5333,27.09,81,80,4.84,NC,1670363090
302,kanker,20.2719,81.4931,13.52,57,61,0.66,IN,1670363091
303,beaverlodge,55.2166,-119.4361,-27.36,91,99,2.09,CA,1670363091
304,zonguldak,41.25,31.8333,4.34,94,12,1.21,TR,1670363092
305,sembakung,3.8167,117.25,22.37,99,43,0.49,ID,1670363092
306,arlit,18.7369,7.3853,24.45,16,57,3.54,NE,1670363093
307,juegang,32.3174,121.1855,7.21,64,91,1.79,CN,1670363093
308,puerto escondido,15.85,-97.0667,30.46,62,0,3.09,MX,1670362888
309,tiarei,-17.5333,-149.3333,31.01,77,36,7.43,PF,1670363093
310,shimoda,34.6667,138.95,7.28,73,25,9.06,JP,1670363094
311,adrar,20.5022,-10.0711,25.52,28,0,3.41,MR,1670363094
312,khasan,42.4308,130.6434,-3.54,49,2,5.05,RU,1670363095
313,tairua,-37.0167,175.85,15.15,91,100,7.92,NZ,1670363095
314,hella,67.2,14.4333,0.08,80,40,6.69,NO,1670363096
315,kiruna,67.8557,20.2251,-12.49,72,87,4.63,SE,1670363096
316,pevek,69.7008,170.3133,-13.23,95,100,2.78,RU,1670363097
317,boa vista,2.8197,-60.6733,28.99,70,40,2.06,BR,1670362750
318,fowa,8.9167,6.4,24.95,22,64,0.66,NG,1670363097
319,port blair,11.6667,92.75,27.02,83,75,3.6,IN,1670363098
320,hobyo,5.3505,48.5268,26.22,78,100,7.38,SO,1670363098
321,sioux lookout,50.1001,-91.917,-18.96,78,100,1.54,CA,1670362979
322,vila velha,-20.3297,-40.2925,24.97,88,100,5.66,BR,1670363104
323,saint-pierre,-21.3393,55.4781,24.82,78,75,8.75,RE,1670363105
324,san rafael,-34.6177,-68.3301,31.03,21,0,2.56,AR,1670363106
325,kathu,7.9178,98.3332,29.27,99,84,6.6,TH,1670363106
326,guia de isora,28.2115,-16.7795,18.77,88,95,3.62,ES,1670363107
327,egvekinot,66.3167,-179.1667,-14.48,94,100,1.72,RU,1670363107
328,taksimo,56.3444,114.8794,-17.82,84,97,2.22,RU,1670363108
329,mahebourg,-20.4081,57.7,25.16,83,75,5.14,MU,1670363108
330,kapoeta,4.7717,33.5903,24.87,59,29,2.24,SS,1670363109
331,cervo,43.6702,-7.4101,12.43,83,88,1.21,ES,1670363109
332,necochea,-38.5473,-58.7368,19.09,62,2,7.2,AR,1670363109
333,poum,-20.2333,164.0167,27.39,75,99,2.14,NC,1670363110
334,nizwa,22.9333,57.5333,17.97,57,0,0.41,OM,1670363111
335,buraydah,26.326,43.975,15.25,89,59,2.37,SA,1670363111
336,hirado,33.3597,129.5531,7.99,59,100,6.86,JP,1670363111
337,anloga,5.7947,0.8973,27.58,82,31,4.23,GH,1670363112
338,jalu,29.0331,21.5482,19.66,21,54,4.08,LY,1670363112
339,puerto ayacucho,5.6639,-67.6236,26.56,76,50,2.75,VE,1670363113
340,forbes,-33.3833,148.0167,19.63,33,100,2.8,AU,1670363113
341,champerico,14.3,-91.9167,34.3,72,16,3.46,GT,1670363114
342,ferrol,43.4832,-8.2369,13.18,93,100,1.11,ES,1670363114
343,wilmington island,32.0036,-80.9737,22.05,61,100,1.54,US,1670363114
344,clyde river,70.4692,-68.5914,-14.87,92,75,0.0,CA,1670363115
345,lumeje,-11.55,20.7833,17.76,94,82,1.42,AO,1670363115
346,kongolo,-5.3833,27.0,20.31,96,15,0.51,CD,1670363116
347,upington,-28.4478,21.2561,19.21,22,0,2.06,ZA,1670363116
348,obo,5.3998,26.4869,23.34,47,61,1.19,CF,1670363117
349,hoquiam,46.9809,-123.8893,7.74,95,100,1.54,US,1670363119
350,aykhal,66.0,111.5,-14.94,94,100,10.99,RU,1670363120
351,muros,42.7762,-9.0603,10.61,93,97,2.32,ES,1670363120
352,macusani,-14.0833,-70.4333,5.39,78,99,1.99,PE,1670363120
353,ushtobe,45.2514,77.9838,-14.2,95,30,2.63,KZ,1670363121
354,laurentides,46.4334,-74.9826,1.66,99,100,0.85,CA,1670363121
355,beisfjord,68.3751,17.5988,-0.97,86,95,4.43,NO,1670363122
356,ponta do sol,32.6667,-17.1,21.67,94,95,6.89,PT,1670363122
357,santa rosa,14.3122,121.1114,26.17,83,68,3.03,PH,1670363123
358,waingapu,-9.6567,120.2641,25.48,81,42,1.5,ID,1670363123
359,temiscaming,46.7212,-79.0971,-2.25,86,97,2.57,CA,1670363124
360,kozhva,65.1073,57.0459,-14.97,89,99,5.75,RU,1670363124
361,kaeo,-35.1,173.7833,17.96,96,100,8.11,NZ,1670363124
362,rundu,-17.9333,19.7667,20.3,64,41,2.67,NA,1670363125
363,atambua,-9.1061,124.8925,23.25,79,77,0.72,ID,1670363125
364,richards bay,-28.783,32.0377,20.03,88,100,0.92,ZA,1670363126
365,linjiang,41.8069,126.9078,-13.15,95,22,0.73,CN,1670363126
366,yarmouth,41.7057,-70.2286,12.08,88,0,4.92,US,1670363126
367,ballina,-28.8667,153.5667,23.21,84,77,1.69,AU,1670363127
368,vryburg,-26.9566,24.7284,19.4,63,46,4.34,ZA,1670363127
369,hasaki,35.7333,140.8333,3.45,64,1,3.21,JP,1670363128
370,bonthe,7.5264,-12.505,26.7,83,42,3.24,SL,1670363128
371,bilibino,68.0546,166.4372,-21.7,100,89,1.08,RU,1670363128
372,sobolevo,54.4299,31.8996,-8.71,80,100,5.97,RU,1670363129
373,magrath,49.4167,-112.8686,-19.82,77,100,4.12,CA,1670363129
374,lokoja,7.8024,6.743,26.5,30,100,0.71,NG,1670363130
375,enshi,30.3,109.4833,7.75,81,100,0.61,CN,1670363130
376,iqaluit,63.7506,-68.5145,-9.15,72,20,9.26,CA,1670363130
377,knyaze-volkonskoye,48.4642,135.4567,-13.81,95,83,3.26,RU,1670363131
378,casas grandes,30.3667,-107.95,20.8,31,27,7.7,MX,1670363131
379,sabha,27.0377,14.4283,18.85,21,1,2.49,LY,1670363132
380,xingyi,24.1877,102.817,9.51,95,67,1.78,CN,1670363132
381,chuy,-33.6971,-53.4616,21.19,77,0,3.79,UY,1670363132
382,bonfim,3.0833,-59.95,26.84,75,83,2.6,BR,1670363133
383,namatanai,-3.6667,152.4333,27.54,77,100,2.9,PG,1670363133
384,soma,39.1855,27.6094,8.52,84,92,1.04,TR,1670363134
385,cozumel,20.5083,-86.9458,28.93,67,20,4.47,MX,1670362884
386,katete,-0.7818,29.7544,14.71,90,78,1.6,UG,1670363134
387,coahuayana,18.7333,-103.6833,29.58,62,3,2.73,MX,1670363135
388,belaya gora,68.5333,146.4167,-39.7,92,91,2.25,RU,1670363135
389,palmares,-8.6833,-35.5917,23.29,83,91,1.88,BR,1670363135
390,lavrentiya,65.5833,-171.0,-6.41,88,99,0.99,RU,1670363136
391,kalmunai,7.4167,81.8167,24.28,86,100,6.04,LK,1670363136
392,camacha,33.0833,-16.3333,16.68,94,40,4.12,PT,1670363136
393,pierre,44.3683,-100.351,-0.64,63,75,3.6,US,1670363138
394,olafsvik,64.8945,-23.7142,4.23,74,98,3.62,IS,1670363140
395,krasnogvardeyskiy,57.3793,62.3195,-17.23,96,18,2.07,RU,1670363141
396,maceio,-9.6658,-35.7353,25.69,83,0,3.09,BR,1670363141
397,misratah,32.3754,15.0925,19.38,47,60,3.66,LY,1670363141
398,parana,-31.732,-60.5238,38.08,32,0,0.39,AR,1670363143
399,vostok,46.4856,135.8833,-14.95,97,100,1.64,RU,1670363143
400,leh,34.1667,77.5833,-7.94,78,53,0.65,IN,1670363144
401,lumsden,50.6501,-104.8678,-23.33,95,92,2.51,CA,1670363137
402,dasoguz,41.8363,59.9666,-11.03,73,0,2.06,TM,1670363145
403,san luis potosi,22.5,-100.5,24.23,31,0,4.08,MX,1670363012
404,talcahuano,-36.7167,-73.1167,19.82,73,0,5.66,CL,1670363145
405,elat,29.5581,34.9482,15.91,63,12,3.09,IL,1670363146
406,talaya,61.3833,152.75,-42.04,100,69,0.54,RU,1670363146
407,sao miguel,-5.4667,-35.3667,27.43,77,34,6.13,BR,1670362577
408,raudeberg,61.9875,5.1352,-1.19,53,100,11.25,NO,1670363147
409,zacualtipan,20.65,-98.6,19.86,63,9,2.87,MX,1670363147
410,toamasina,-18.1667,49.3833,23.0,88,75,2.57,MG,1670363147
411,kodinsk,58.6881,99.1844,-13.94,91,100,5.85,RU,1670363148
412,sambava,-14.2667,50.1667,23.02,86,5,4.88,MG,1670363148
413,kefamenanu,-9.4467,124.4781,22.32,75,56,0.76,ID,1670363149
414,gorakhpur,29.45,75.6833,13.53,33,0,3.21,IN,1670363149
415,eureka,40.8021,-124.1637,11.66,80,0,0.89,US,1670363137
416,salaga,8.5508,-0.5188,27.46,13,2,2.13,GH,1670363150
417,manzhouli,49.6,117.4333,-14.52,88,7,6.35,CN,1670363150
418,yauya,-8.9833,-77.3,15.11,44,96,2.74,PE,1670363150
419,eldorado,-23.7869,-54.2836,25.7,80,17,1.36,BR,1670363151
420,jiuquan,39.7432,98.5174,-8.86,83,52,1.49,CN,1670363151
421,trat,12.5,102.5,22.7,86,54,3.08,TH,1670363152
422,seddon,-37.8068,144.8916,17.6,75,0,0.0,AU,1670363152
423,ocean city,39.2776,-74.5746,14.14,89,100,0.89,US,1670363152
424,inyonga,-6.7167,32.0667,18.75,83,42,1.3,TZ,1670363153
425,isangel,-19.55,169.2667,29.32,69,63,0.45,VU,1670363153
426,pakhtakoron,40.1571,68.7466,-3.67,88,67,1.34,TJ,1670363154
427,bibiani,6.4635,-2.3194,23.28,77,63,1.22,GH,1670362950
428,tyret pervaya,53.6703,102.3106,-9.8,69,100,5.27,RU,1670363154
429,usinsk,65.9939,57.5281,-15.16,92,100,9.43,RU,1670363154
430,kushiro,42.975,144.3747,0.1,73,64,2.02,JP,1670363155
431,maneromango,-7.1988,38.7848,20.38,98,35,1.0,TZ,1670363155
432,san quintin,30.4833,-115.95,16.37,61,2,7.78,MX,1670363156
433,touros,-5.1989,-35.4608,26.13,77,55,6.07,BR,1670363156
434,krasnoselkup,65.7,82.4667,-15.75,97,96,5.33,RU,1670363156
435,vao,-22.6667,167.4833,24.44,88,77,1.98,NC,1670363157
436,sterling,39.0062,-77.4286,9.27,91,100,3.13,US,1670363059
437,benito juarez,19.385,-99.165,24.44,24,0,1.54,MX,1670363157
438,pisco,-13.7,-76.2167,24.03,60,0,9.26,PE,1670363158
439,biloela,-24.4167,150.5,28.83,44,0,2.74,AU,1670363158
440,agirish,61.9247,63.0231,-17.95,96,20,2.12,RU,1670363158
441,san cristobal,7.7669,-72.225,21.1,83,77,1.69,VE,1670362894
442,bemidji,47.4736,-94.8803,-9.9,79,0,0.0,US,1670363072
443,vanavara,60.34,102.2797,-11.73,91,100,5.9,RU,1670363159
444,tautira,-17.7333,-149.15,26.07,77,49,7.9,PF,1670363159
445,sosnovo-ozerskoye,52.5249,111.5418,-13.4,75,99,5.47,RU,1670363160
446,kruisfontein,-34.0033,24.7314,18.27,86,0,1.01,ZA,1670363160
447,rioja,-29.4111,-66.8507,37.19,20,5,2.8,AR,1670363160
448,havoysund,70.9963,24.6622,3.13,65,100,6.87,NO,1670363161
449,antofagasta,-23.65,-70.4,19.6,76,35,2.6,CL,1670363059
450,nelson bay,-32.7167,152.15,20.56,83,46,0.89,AU,1670363161
451,havelock,34.8791,-76.9013,19.99,90,100,2.57,US,1670363162
452,ambam,2.3833,11.2833,21.07,96,95,1.54,CM,1670363162
453,jining,35.405,116.5814,1.19,81,26,1.86,CN,1670363163
454,vestmanna,62.1564,-7.1664,1.51,64,100,8.23,FO,1670363163
455,hamada,34.8833,132.0833,8.51,57,97,8.17,JP,1670363164
456,arraial do cabo,-22.9661,-42.0278,22.92,88,75,4.63,BR,1670363164
457,iquitos,-3.7481,-73.2472,23.02,94,100,1.03,PE,1670363165
458,monrovia,6.3005,-10.7969,26.87,84,11,3.32,LR,1670362882
459,melioratorov,57.2107,65.6077,-21.32,77,0,5.0,RU,1670363165
460,pemangkat,1.1667,108.9667,24.94,90,100,2.06,ID,1670363166
461,shaunavon,49.6501,-108.4181,-24.12,81,100,2.84,CA,1670363167
462,bambous virieux,-20.3428,57.7575,25.14,83,75,5.14,MU,1670363167
463,valparaiso,-33.0393,-71.6273,29.13,32,0,6.69,CL,1670363168
464,ellensburg,46.9965,-120.5479,5.25,73,0,13.38,US,1670363168
465,kirakira,-10.4544,161.9205,28.5,77,59,2.46,SB,1670363169
466,baillif,16.0202,-61.7463,25.72,70,16,4.42,GP,1670363169
467,malihabad,26.9167,80.7167,11.95,41,0,3.2,IN,1670363169
468,yibin,28.7667,104.6238,9.71,80,100,0.49,CN,1670363170
469,ozinki,51.1786,49.6769,-12.75,76,29,2.6,RU,1670363170
470,puerto cabello,10.4731,-68.0125,35.75,71,33,2.08,VE,1670363171
471,ipixuna,-1.7625,-48.8043,26.18,79,96,1.72,BR,1670363171
472,whitehaven,54.549,-3.5841,1.48,100,11,5.11,GB,1670363171
473,port macquarie,-31.4333,152.9167,23.83,68,21,2.51,AU,1670363172
474,pacific grove,36.6177,-121.9166,13.93,70,0,3.6,US,1670363040
475,maroua,10.591,14.3159,24.19,21,1,3.37,CM,1670363173
476,eucaliptus,-17.5833,-67.5167,13.06,39,100,5.14,BO,1670363173
477,seoul,37.5683,126.9778,3.69,93,40,2.06,KR,1670363050
478,kokopo,-4.352,152.2633,27.06,76,89,1.21,PG,1670363173
479,chalons-en-champagne,48.9539,4.3672,2.57,97,36,1.29,FR,1670363174
480,hofn,64.2539,-15.2082,1.1,63,19,4.65,IS,1670363174
481,ormara,25.2088,64.6357,23.33,61,0,1.48,PK,1670363175
482,saurimo,-9.6608,20.3916,17.54,97,98,1.49,AO,1670363175
483,mtimbira,-8.7833,36.35,25.06,70,1,2.29,TZ,1670363175
484,sharlyk,52.9167,54.75,-23.15,98,10,1.02,RU,1670363176
485,ouallam,14.3188,2.0866,25.59,16,50,4.08,NE,1670363176
486,pangai,-19.8,-174.35,28.06,78,75,3.6,TO,1670363177
487,umm kaddadah,13.6017,26.6876,17.22,28,0,6.25,SD,1670363177
488,prince rupert,54.3161,-130.3201,3.83,95,100,8.75,CA,1670363177
489,porto murtinho,-21.6989,-57.8825,31.1,53,38,2.91,BR,1670363178
490,paranhos,-23.8928,-55.4311,24.09,77,85,1.14,BR,1670363178
491,celendin,-6.8703,-78.1517,20.29,47,84,2.85,PE,1670363179
492,goderich,43.7501,-81.7165,6.06,87,99,2.57,CA,1670362967
493,xining,36.6167,101.7667,-4.36,53,9,0.98,CN,1670363179
494,pangody,65.85,74.4859,-17.32,97,90,4.5,RU,1670363179
495,las cruces,32.3123,-106.7783,20.42,43,0,6.69,US,1670362989
496,whitefish,48.4111,-114.3376,0.06,88,100,1.54,US,1670363180
497,qianan,44.9932,124.0581,-8.05,63,2,5.84,CN,1670363181
498,paamiut,61.994,-49.6678,-0.97,95,60,3.87,GL,1670363181
499,tigil,57.8,158.6667,-9.35,89,100,4.77,RU,1670363181
500,srandakan,-7.9386,110.2506,24.14,90,100,1.27,ID,1670363182
501,polyarnyy,69.1989,33.4478,-4.27,92,100,5.34,RU,1670363182
502,coos bay,43.3665,-124.2179,10.69,90,0,2.57,US,1670363023
503,bari,41.1177,16.8512,14.15,85,0,2.24,IT,1670363183
504,ridgecrest,35.6225,-117.6709,14.27,35,40,0.89,US,1670363183
505,gueret,46.1667,1.8667,-2.12,98,23,1.64,FR,1670363184
506,baker city,44.7749,-117.8344,1.47,86,100,2.06,US,1670362984
507,kodarma,24.4667,85.6,10.75,49,1,1.89,IN,1670363184
508,ghanzi,-21.5667,21.7833,23.12,44,15,5.33,BW,1670363185
509,ontario,34.0633,-117.6509,16.4,65,100,2.06,US,1670362888
510,steamboat springs,40.485,-106.8317,-1.23,77,100,0.45,US,1670363185
511,sangmelima,2.9333,11.9833,20.69,88,90,1.2,CM,1670363186
512,goundam,16.4145,-3.6708,27.99,15,11,4.02,ML,1670363186
513,mocuba,-16.8392,36.9856,24.25,66,53,2.1,MZ,1670363187
514,lubumbashi,-11.6609,27.4794,16.78,88,78,0.34,CD,1670363187
515,itoman,26.1247,127.6694,18.01,61,75,6.69,JP,1670363187
516,komsomolskiy,40.4272,71.7189,1.4,64,75,2.06,UZ,1670363188
517,manavgat,36.7867,31.4431,14.16,71,6,2.03,TR,1670363188
518,cockburn town,21.4612,-71.1419,25.58,65,66,7.51,TC,1670363072
519,husavik,66.0449,-17.3389,-2.41,81,96,4.81,IS,1670363189
520,ocampo,21.65,-101.5,22.39,16,0,2.31,MX,1670363189
521,jardim,-21.4803,-56.1381,26.26,74,98,1.08,BR,1670363189
522,deputatskiy,69.3,139.9,-37.01,100,61,1.67,RU,1670363190
523,dali,25.7,100.1833,5.64,84,0,1.38,CN,1670363190
524,sawakin,19.1059,37.3321,25.32,75,60,5.38,SD,1670363191
525,jorochito,-18.05,-63.4333,32.18,64,92,1.86,BO,1670363191
526,tilichiki,60.4667,166.1,-11.33,88,88,4.75,RU,1670363192
527,sidi ali,36.0998,0.4206,13.44,84,79,2.64,DZ,1670363192
528,korhogo,9.45,-5.6333,26.25,31,17,0.66,CI,1670363192
529,okha,53.5739,142.9478,-15.73,86,100,5.99,RU,1670363193
530,constitucion,-35.3333,-72.4167,19.0,63,19,7.6,CL,1670363193
531,bhawanipatna,19.9,83.1667,14.56,67,81,0.31,IN,1670363194
532,naze,28.3667,129.4833,14.51,62,92,6.99,JP,1670363194
533,benguela,-12.5763,13.4055,25.42,80,100,0.51,AO,1670363194
534,mgandu,-5.95,34.1333,19.64,51,74,0.34,TZ,1670363195
535,kuytun,54.3419,101.5036,-10.74,74,100,6.9,RU,1670363195
536,henties bay,-22.116,14.2845,14.14,91,0,2.47,NA,1670363195
537,arica,-18.475,-70.3042,22.75,68,0,3.6,CL,1670362773
538,yurimaguas,-5.9,-76.0833,25.89,77,94,1.03,PE,1670363196
539,pontal do parana,-25.6533,-48.5128,22.72,95,87,1.42,BR,1670363197
540,nemuro,43.3236,145.575,0.48,94,100,1.0,JP,1670363029
541,turinsk,58.0458,63.696,-17.69,97,24,2.6,RU,1670363197
542,batemans bay,-35.7167,150.1833,17.28,48,36,1.72,AU,1670363197
543,ahuimanu,21.4447,-157.8378,28.84,70,100,3.6,US,1670363198
544,uray,60.1247,64.7758,-18.21,98,24,2.41,RU,1670363199
545,porto san giorgio,43.1827,13.7934,12.69,87,100,1.17,IT,1670363199
546,namestovo,49.4079,19.4803,2.21,97,100,2.33,SK,1670363200
547,muli,2.9167,73.5667,26.57,77,92,2.96,MV,1670363200
548,vilhena,-12.7406,-60.1458,27.12,74,40,3.09,BR,1670363201
549,peniche,39.3558,-9.3811,13.03,95,94,1.63,PT,1670363201
550,pedasi,7.5333,-80.0333,28.37,76,71,3.53,PA,1670363201
551,luang prabang,19.8856,102.1347,18.43,99,37,0.44,LA,1670363202
552,mitsamiouli,-11.3847,43.2844,26.83,76,71,4.37,KM,1670363202
553,locri,38.2414,16.2623,15.73,78,96,1.03,IT,1670363203
554,bosaso,11.2842,49.1816,24.2,72,97,1.41,SO,1670363203
555,rondonopolis,-16.4708,-54.6356,29.02,52,99,2.88,BR,1670362934
556,smirnykh,49.75,142.8333,-14.71,97,100,0.81,RU,1670363203
557,tacuarembo,-31.7333,-55.9833,32.77,22,0,5.15,UY,1670363204
558,honningsvag,70.9821,25.9704,2.86,65,75,7.72,NO,1670363204
559,albanel,48.8832,-72.4487,1.08,93,100,3.6,CA,1670363205
560,muzhi,65.3667,64.6667,-17.09,96,100,1.98,RU,1670363205
561,guerrero negro,27.9769,-114.0611,18.4,53,10,7.6,MX,1670363205
562,steinbach,50.1667,8.5667,3.77,87,75,3.6,DE,1670363206
563,chapais,49.7834,-74.8492,-5.12,96,99,2.44,CA,1670363206
564,anori,-3.7728,-61.6442,26.62,81,72,0.9,BR,1670363206
565,praia da vitoria,38.7333,-27.0667,14.14,88,75,12.03,PT,1670363207
566,port pirie,-33.1833,138.0167,18.39,58,98,7.43,AU,1670363207
567,jijiga,9.35,42.8,15.54,62,15,0.54,ET,1670363207
568,ciro marina,39.3732,17.126,14.67,76,100,2.71,IT,1670363208
569,bacolod,10.6667,122.95,24.17,86,20,4.05,PH,1670363208
570,burgeo,47.6167,-57.6152,3.04,86,100,4.23,CA,1670363209
571,hami,42.8,93.45,-5.95,42,52,1.45,CN,1670363209
572,bafra,41.5678,35.9069,11.01,82,91,1.48,TR,1670363209
573,ahipara,-35.1667,173.1667,18.02,80,99,7.25,NZ,1670363210
574,nizhniy tsasuchey,50.5167,115.1333,-11.36,77,16,5.87,RU,1670363210
575,college,64.8569,-147.8028,-4.89,90,75,0.0,US,1670363029
576,bukachacha,52.9833,116.9167,-22.79,94,9,1.4,RU,1670363211
577,kamphaeng phet,16.25,99.5,22.12,79,92,1.96,TH,1670363211
578,berezovyy,51.6667,135.7,-21.48,88,24,2.11,RU,1670363211
579,semey,50.4111,80.2275,-26.25,99,45,1.75,KZ,1670363212
580,kazachinskoye,57.6953,93.2761,-13.43,89,100,4.59,RU,1670363212
581,yangambi,0.8102,24.4336,22.73,85,86,0.86,CD,1670363213
582,itaituba,-4.2761,-55.9836,31.09,70,75,1.03,BR,1670363213
583,korla,41.7597,86.1469,-4.03,48,84,1.01,CN,1670363213
584,baoning,25.3378,110.026,7.92,71,75,2.0,CN,1670363214
585,simpang,-1.2667,104.0833,23.11,93,100,0.26,ID,1670363214
586,okhotsk,59.3833,143.3,-26.76,92,75,2.57,RU,1670363214
587,sistranda,63.7256,8.834,-0.02,54,100,9.08,NO,1670363215
588,joshimath,30.5667,79.5667,7.54,17,0,4.06,IN,1670363215
589,nanortalik,60.1432,-45.2371,2.12,99,100,1.95,GL,1670363216
590,mayo,38.8876,-76.5119,9.99,94,100,3.09,US,1670363216
591,astaneh-ye ashrafiyeh,37.2596,49.9444,7.21,89,95,2.93,IR,1670363216
592,suez,29.9737,32.5263,15.98,72,29,3.06,EG,1670363217
593,indianola,41.3581,-93.5574,7.27,55,72,0.89,US,1670363217
594,luanda,-8.8368,13.2343,26.0,89,40,2.57,AO,1670363217
595,waddan,29.1614,16.139,16.39,44,8,1.11,LY,1670363218
596,tarko-sale,64.9225,77.785,-15.56,95,99,6.57,RU,1670363218
